[{"name":"Nahant, Massachusetts","spotId":1091,"location":{"type":"Point","coordinates":[-70.922279,42.4265633]}},{"name":"Jenness-Beach, New Hampshire","spotId":881,"location":{"type":"Point","coordinates":[-70.7622864,42.9857828]}},{"name":"Kennebunk-Beach, Maine","spotId":364,"location":{"type":"Point","coordinates":[-70.5022743,43.34508599999999]}},{"name":"Popham-Beach, Maine","spotId":3785,"location":{"type":"Point","coordinates":[-69.78448999999999,43.752029]}},{"name":"Old-Orchard-Beach, Maine","spotId":852,"location":{"type":"Point","coordinates":[-70.3772911,43.5177659]}},{"name":"Higgins-Beach, Maine","spotId":362,"location":{"type":"Point","coordinates":[-70.275256,43.561816]}},{"name":"Salisbury, Massachusetts","spotId":1130,"location":{"type":"Point","coordinates":[-70.8605982,42.84172299999999]}},{"name":"Hampton-Beach, New Hampshire","spotId":2074,"location":{"type":"Point","coordinates":[-70.81348179999999,42.9113098]}},{"name":"Ogunquit-River, Maine","spotId":365,"location":{"type":"Point","coordinates":[-70.65017999999999,43.2638269]}},{"name":"Cape-Ann, Massachusetts","spotId":370,"location":{"type":"Point","coordinates":[-70.5930556,42.648611]}},{"name":"Scituate, Massachusetts","spotId":372,"location":{"type":"Point","coordinates":[-70.7258633,42.195929]}},{"name":"Plymouth-Beach, Massachusetts","spotId":4525,"location":{"type":"Point","coordinates":[-70.63836789999999,41.9626035]}},{"name":"Cape-Cod, Massachusetts","spotId":373,"location":{"type":"Point","coordinates":[-70.29624079999999,41.6687897]}},{"name":"Squibnocket, Massachusetts","spotId":974,"location":{"type":"Point","coordinates":[-70.7744726,41.307058]}},{"name":"Wells-Beach, Maine","spotId":4218,"location":{"type":"Point","coordinates":[-70.56727529999999,43.3025861]}},{"name":"Long-Sands, Maine","spotId":367,"location":{"type":"Point","coordinates":[-70.6185605,43.1641099]}},{"name":"Green-Harbor, Massachusetts","spotId":864,"location":{"type":"Point","coordinates":[-70.6627845,42.0766342]}},{"name":"Nantasket-Beach, Massachusetts","spotId":371,"location":{"type":"Point","coordinates":[-70.87449,42.2917663]}},{"name":"The-Wall, New Hampshire","spotId":369,"location":{"type":"Point","coordinates":[-70.8142328,42.9127017]}},{"name":"Long-Point, Massachusetts","spotId":975,"location":{"type":"Point","coordinates":[-70.172,42.027]}},{"name":"Lucy-Vincent, Massachusetts","spotId":977,"location":{"type":"Point","coordinates":[-70.724392,41.3393179]}},{"name":"Abels-Hill, Massachusetts","spotId":978,"location":{"type":"Point","coordinates":[-70.7119721,41.3501137]}},{"name":"Short-Sands, Maine","spotId":366,"location":{"type":"Point","coordinates":[-70.6075523,43.1742547]}},{"name":"Seabrook-Beach, New Hampshire","spotId":2078,"location":{"type":"Point","coordinates":[-70.8152588,42.8841004]}},{"name":"South-Beach, Massachusetts","spotId":976,"location":{"type":"Point","coordinates":[-70.480442,41.3489947]}},{"name":"Rye-Rocks, New Hampshire","spotId":368,"location":{"type":"Point","coordinates":[-70.7689407,42.9717569]}},{"name":"Breachway, Massachusetts","spotId":784,"location":{"type":"Point","coordinates":[-71.63830050000001,41.3560536]}},{"name":"Scarborough-Beach, Maine","spotId":3710,"location":{"type":"Point","coordinates":[-70.3042148,43.54675109999999]}},{"name":"Baileys-Beach, Massachusetts","spotId":2096,"location":{"type":"Point","coordinates":[-71.3105545,41.4555282]}},{"name":"Costellos, New Hampshire","spotId":2077,"location":{"type":"Point","coordinates":[-71.1021272,42.8130853]}},{"name":"Linkys, New Hampshire","spotId":2075,"location":{"type":"Point","coordinates":[-71.430857,42.956907]}},{"name":"Block-Island, Massachusetts","spotId":4057,"location":{"type":"Point","coordinates":[-71.5842643,41.1616556]}},{"name":"2nd-Beach-Sachuest-Beach, Massachusetts","spotId":846,"location":{"type":"Point","coordinates":[-71.2565481,41.4874997]}},{"name":"1st-Beach-Eastons-Beach, Massachusetts","spotId":907,"location":{"type":"Point","coordinates":[-71.2907618,41.4870097]}},{"name":"East-Beach, Massachusetts","spotId":4059,"location":{"type":"Point","coordinates":[-70.4500247,41.3728957]}},{"name":"New-England-Hurricane, Massachusetts","spotId":1095,"location":{"type":"Point","coordinates":[-72.6135054,42.0380332]}}]