[
  {
    "state": "florida",
    "name": "Nassauville",
    "stationId": "8720098",
    "location": {
      "type": "Point",
      "coordinates": [
        -81.515,
        30.5683
      ]
    }
  },
  {
    "state": "florida",
    "name": "Edwards Creek, 1 mi. above entrance",
    "stationId": "8720145",
    "location": {
      "type": "Point",
      "coordinates": [
        -81.5417,
        30.5017
      ]
    }
  },
  {
    "state": "florida",
    "name": "Mayport Naval Station, Degausing Structure",
    "stationId": "8720214",
    "location": {
      "type": "Point",
      "coordinates": [
        -81.395,
        30.3967
      ]
    }
  },
  {
    "state": "florida",
    "name": "Mayport Naval Station, Water Treatment Dock",
    "stationId": "8720211",
    "location": {
      "type": "Point",
      "coordinates": [
        -81.4133,
        30.4
      ]
    }
  },
  {
    "state": "florida",
    "name": "MAYPORT (BAR PILOT DOCK)",
    "stationId": "8720218",
    "location": {
      "type": "Point",
      "coordinates": [
        -81.43,
        30.3967
      ]
    }
  },
  {
    "state": "florida",
    "name": "Sisters Creek",
    "stationId": "8720196",
    "location": {
      "type": "Point",
      "coordinates": [
        -81.4533,
        30.4167
      ]
    }
  },
  {
    "state": "florida",
    "name": "Clapboard Creek, Pelotes Island",
    "stationId": "8720198",
    "location": {
      "type": "Point",
      "coordinates": [
        -81.51,
        30.4067
      ]
    }
  },
  {
    "state": "florida",
    "name": "Dame Point",
    "stationId": "8720219",
    "location": {
      "type": "Point",
      "coordinates": [
        -81.5583,
        30.3867
      ]
    }
  },
  {
    "state": "florida",
    "name": "Cedar Heights, Broward River",
    "stationId": "8720189",
    "location": {
      "type": "Point",
      "coordinates": [
        -81.6417,
        30.4367
      ]
    }
  },
  {
    "state": "florida",
    "name": "Sherwood Forest",
    "stationId": "8720213",
    "location": {
      "type": "Point",
      "coordinates": [
        -81.7283,
        30.42
      ]
    }
  },
  {
    "state": "florida",
    "name": "Phoenix Park",
    "stationId": "8720225",
    "location": {
      "type": "Point",
      "coordinates": [
        -81.6367,
        30.3833
      ]
    }
  },
  {
    "state": "florida",
    "name": "Jacksonville, Long Branch",
    "stationId": "8720242",
    "location": {
      "type": "Point",
      "coordinates": [
        -81.62,
        30.36
      ]
    }
  },
  {
    "state": "florida",
    "name": "Jacksonville, Main Street Bridge",
    "stationId": "8720226",
    "location": {
      "type": "Point",
      "coordinates": [
        -81.6583,
        30.32
      ]
    }
  },
  {
    "state": "florida",
    "name": "I-295 bridge (west end)",
    "stationId": "8720357",
    "location": {
      "type": "Point",
      "coordinates": [
        -81.6917,
        30.1917
      ]
    }
  },
  {
    "state": "florida",
    "name": "Peoria Point, Doctors Lake",
    "stationId": "8720406",
    "location": {
      "type": "Point",
      "coordinates": [
        -81.7583,
        30.12
      ]
    }
  },
  {
    "state": "florida",
    "name": "Black Creek, S.C.L. RR. bridge",
    "stationId": "8720434",
    "location": {
      "type": "Point",
      "coordinates": [
        -81.7617,
        30.08
      ]
    }
  },
  {
    "state": "florida",
    "name": "Palatka",
    "stationId": "8720774",
    "location": {
      "type": "Point",
      "coordinates": [
        -81.6317,
        29.6433
      ]
    }
  },
  {
    "state": "florida",
    "name": "Buffalo Bluff",
    "stationId": "8720767",
    "location": {
      "type": "Point",
      "coordinates": [
        -81.6817,
        29.595
      ]
    }
  },
  {
    "state": "florida",
    "name": "Welaka",
    "stationId": "8720832",
    "location": {
      "type": "Point",
      "coordinates": [
        -81.675,
        29.4767
      ]
    }
  },
  {
    "state": "florida",
    "name": "State Road 312, Matanzas River",
    "stationId": "8720582",
    "location": {
      "type": "Point",
      "coordinates": [
        -81.3067,
        29.8667
      ]
    }
  },
  {
    "state": "florida",
    "name": "Crescent Beach, Matanzas River",
    "stationId": "8720651",
    "location": {
      "type": "Point",
      "coordinates": [
        -81.2583,
        29.7683
      ]
    }
  },
  {
    "state": "florida",
    "name": "Matanzas Inlet, State Road A1A Bridge",
    "stationId": "8720692",
    "location": {
      "type": "Point",
      "coordinates": [
        -81.2279,
        29.7045
      ]
    }
  },
  {
    "state": "florida",
    "name": "Bings Landing, Matanzas River",
    "stationId": "8720757",
    "location": {
      "type": "Point",
      "coordinates": [
        -81.205,
        29.615
      ]
    }
  },
  {
    "state": "florida",
    "name": "Vero Beach",
    "stationId": "8722125",
    "location": {
      "type": "Point",
      "coordinates": [
        -80.3717,
        27.6317
      ]
    }
  },
  {
    "state": "florida",
    "name": "North Beach Causeway",
    "stationId": "8722208",
    "location": {
      "type": "Point",
      "coordinates": [
        -80.325,
        27.4717
      ]
    }
  },
  {
    "state": "florida",
    "name": "Fort Pierce, South Beach Causeway",
    "stationId": "8722219",
    "location": {
      "type": "Point",
      "coordinates": [
        -80.3233,
        27.4567
      ]
    }
  },
  {
    "state": "florida",
    "name": "Port of Palm Beach",
    "stationId": "8722588",
    "location": {
      "type": "Point",
      "coordinates": [
        -80.0517,
        26.77
      ]
    }
  },
  {
    "state": "florida",
    "name": "Miami Miamarina, Biscayne Bay",
    "stationId": "8723165",
    "location": {
      "type": "Point",
      "coordinates": [
        -80.185,
        25.7783
      ]
    }
  },
  {
    "state": "florida",
    "name": "Jacksonville Beach",
    "stationId": "8720291",
    "location": {
      "type": "Point",
      "coordinates": [
        -81.3867,
        30.2833
      ]
    }
  },
  {
    "state": "florida",
    "name": "Vilano Beach, Tolomato River",
    "stationId": "8720554",
    "location": {
      "type": "Point",
      "coordinates": [
        -81.3,
        29.9167
      ]
    }
  },
  {
    "state": "florida",
    "name": "St. Augustine Beach",
    "stationId": "8720587",
    "location": {
      "type": "Point",
      "coordinates": [
        -81.2633,
        29.8567
      ]
    }
  },
  {
    "state": "florida",
    "name": "Ponce de Leon Inlet",
    "stationId": "8721147",
    "location": {
      "type": "Point",
      "coordinates": [
        -80.915,
        29.0633
      ]
    }
  },
  {
    "state": "florida",
    "name": "New Smyrna Beach",
    "stationId": "8721164",
    "location": {
      "type": "Point",
      "coordinates": [
        -80.9183,
        29.0233
      ]
    }
  },
  {
    "state": "florida",
    "name": "Packwood Place, Mosquito Lagoon",
    "stationId": "8721222",
    "location": {
      "type": "Point",
      "coordinates": [
        -80.87,
        28.94
      ]
    }
  },
  {
    "state": "florida",
    "name": "Turtle Mound, Mosquito Lagoon",
    "stationId": "8721223",
    "location": {
      "type": "Point",
      "coordinates": [
        -80.825,
        28.9267
      ]
    }
  },
  {
    "state": "florida",
    "name": "PORT CANAVERAL (TRIDENT PIER)",
    "stationId": "8721604",
    "location": {
      "type": "Point",
      "coordinates": [
        -80.5931,
        28.4158
      ]
    }
  },
  {
    "state": "florida",
    "name": "Cocoa Beach",
    "stationId": "8721649",
    "location": {
      "type": "Point",
      "coordinates": [
        -80.6,
        28.3683
      ]
    }
  },
  {
    "state": "florida",
    "name": "Fort Pierce Inlet, Binney Dock",
    "stationId": "8722213",
    "location": {
      "type": "Point",
      "coordinates": [
        -80.3,
        27.4683
      ]
    }
  },
  {
    "state": "florida",
    "name": "PGA Boulevard Bridge, ICWW",
    "stationId": "8722548",
    "location": {
      "type": "Point",
      "coordinates": [
        -80.0667,
        26.8433
      ]
    }
  },
  {
    "state": "florida",
    "name": "Lake Worth Pier (ocean)",
    "stationId": "8722670",
    "location": {
      "type": "Point",
      "coordinates": [
        -80.0333,
        26.6117
      ]
    }
  },
  {
    "state": "florida",
    "name": "South Delray Beach, ICWW",
    "stationId": "8722761",
    "location": {
      "type": "Point",
      "coordinates": [
        -80.065,
        26.4467
      ]
    }
  },
  {
    "state": "florida",
    "name": "Lake Wyman, ICWW",
    "stationId": "8722802",
    "location": {
      "type": "Point",
      "coordinates": [
        -80.07,
        26.37
      ]
    }
  },
  {
    "state": "florida",
    "name": "Haulover Pier, N. Miami Beach",
    "stationId": "8723080",
    "location": {
      "type": "Point",
      "coordinates": [
        -80.12,
        25.9033
      ]
    }
  },
  {
    "state": "florida",
    "name": "Miami Harbor Entrance",
    "stationId": "8723170",
    "location": {
      "type": "Point",
      "coordinates": [
        -80.1317,
        25.7683
      ]
    }
  },
  {
    "state": "florida",
    "name": "GOVERNMENT CUT, MIAMI HARBOR ENTRANCE",
    "stationId": "8723178",
    "location": {
      "type": "Point",
      "coordinates": [
        -80.13,
        25.7633
      ]
    }
  },
  {
    "state": "florida",
    "name": "Bear Cut, Virginia Key",
    "stationId": "8723214",
    "location": {
      "type": "Point",
      "coordinates": [
        -80.1618,
        25.7314
      ]
    }
  },
  {
    "state": "florida",
    "name": "Cutler, Biscayne Bay",
    "stationId": "8723289",
    "location": {
      "type": "Point",
      "coordinates": [
        -80.305,
        25.615
      ]
    }
  },
  {
    "state": "florida",
    "name": "Boca Chita Key, Biscayne Bay",
    "stationId": "8723355",
    "location": {
      "type": "Point",
      "coordinates": [
        -80.175,
        25.5233
      ]
    }
  },
  {
    "state": "florida",
    "name": "Elliott Key Harbor, Elliott Key, Biscayne Bay",
    "stationId": "8723409",
    "location": {
      "type": "Point",
      "coordinates": [
        -80.1967,
        25.4533
      ]
    }
  },
  {
    "state": "florida",
    "name": "Turkey Point, Biscayne Bay",
    "stationId": "8723423",
    "location": {
      "type": "Point",
      "coordinates": [
        -80.33,
        25.4367
      ]
    }
  },
  {
    "state": "florida",
    "name": "East Arsenicker, Card Sound",
    "stationId": "8723465",
    "location": {
      "type": "Point",
      "coordinates": [
        -80.29,
        25.3733
      ]
    }
  },
  {
    "state": "florida",
    "name": "Pumpkin Key, south end, Card Sound",
    "stationId": "8723506",
    "location": {
      "type": "Point",
      "coordinates": [
        -80.2933,
        25.325
      ]
    }
  },
  {
    "state": "florida",
    "name": "Little Card Sound bridge",
    "stationId": "8723534",
    "location": {
      "type": "Point",
      "coordinates": [
        -80.37,
        25.2883
      ]
    }
  },
  {
    "state": "florida",
    "name": "Key Colony Beach",
    "stationId": "8723962",
    "location": {
      "type": "Point",
      "coordinates": [
        -81.0167,
        24.7183
      ]
    }
  },
  {
    "state": "florida",
    "name": "VACA KEY, USCG STATION, FLORIDA BAY",
    "stationId": "8723970",
    "location": {
      "type": "Point",
      "coordinates": [
        -81.105,
        24.7117
      ]
    }
  },
  {
    "state": "florida",
    "name": "Boca Chica Marina",
    "stationId": "8724493",
    "location": {
      "type": "Point",
      "coordinates": [
        -81.7083,
        24.575
      ]
    }
  },
  {
    "state": "florida",
    "name": "Fleming Key, north end",
    "stationId": "8724571",
    "location": {
      "type": "Point",
      "coordinates": [
        -81.795,
        24.5917
      ]
    }
  },
  {
    "state": "florida",
    "name": "KEY WEST",
    "stationId": "8724580",
    "location": {
      "type": "Point",
      "coordinates": [
        -81.8079,
        24.5557
      ]
    }
  },
  {
    "state": "florida",
    "name": "Sand Key Lighthouse, Sand Key Channel",
    "stationId": "8724635",
    "location": {
      "type": "Point",
      "coordinates": [
        -81.8783,
        24.4533
      ]
    }
  },
  {
    "state": "florida",
    "name": "Loggerhead Key, Dry Tortugas",
    "stationId": "8724698",
    "location": {
      "type": "Point",
      "coordinates": [
        -82.92,
        24.6317
      ]
    }
  },
  {
    "state": "florida",
    "name": "Smith Shoal Light",
    "stationId": "8724671",
    "location": {
      "type": "Point",
      "coordinates": [
        -81.9215,
        24.7183
      ]
    }
  },
  {
    "state": "florida",
    "name": "Coconut Point",
    "stationId": "8725319",
    "location": {
      "type": "Point",
      "coordinates": [
        -81.8433,
        26.4
      ]
    }
  },
  {
    "state": "florida",
    "name": "Hendry Creek, Estero Bay",
    "stationId": "8725377",
    "location": {
      "type": "Point",
      "coordinates": [
        -81.8767,
        26.47
      ]
    }
  },
  {
    "state": "florida",
    "name": "Estero Island, Estero Bay",
    "stationId": "8725351",
    "location": {
      "type": "Point",
      "coordinates": [
        -81.9183,
        26.4383
      ]
    }
  },
  {
    "state": "florida",
    "name": "Fort Myers",
    "stationId": "8725520",
    "location": {
      "type": "Point",
      "coordinates": [
        -81.8712,
        26.6477
      ]
    }
  },
  {
    "state": "florida",
    "name": "Port Boca Grande, Charlotte Harbor",
    "stationId": "8725577",
    "location": {
      "type": "Point",
      "coordinates": [
        -82.2583,
        26.72
      ]
    }
  },
  {
    "state": "florida",
    "name": "Bokeelia, Charlotte Harbor",
    "stationId": "8725541",
    "location": {
      "type": "Point",
      "coordinates": [
        -82.1633,
        26.7067
      ]
    }
  },
  {
    "state": "florida",
    "name": "Turtle Bay",
    "stationId": "8725649",
    "location": {
      "type": "Point",
      "coordinates": [
        -82.1833,
        26.7967
      ]
    }
  },
  {
    "state": "florida",
    "name": "Shell Point, Peace River, Charlotte Harbor",
    "stationId": "8725791",
    "location": {
      "type": "Point",
      "coordinates": [
        -81.9933,
        26.9883
      ]
    }
  },
  {
    "state": "florida",
    "name": "Locust Point, Hog Island",
    "stationId": "8725745",
    "location": {
      "type": "Point",
      "coordinates": [
        -82.1367,
        26.93
      ]
    }
  },
  {
    "state": "florida",
    "name": "Myakka River, US 41 bridge",
    "stationId": "8725837",
    "location": {
      "type": "Point",
      "coordinates": [
        -82.2933,
        27.045
      ]
    }
  },
  {
    "state": "florida",
    "name": "Pumpkin Bay",
    "stationId": "8724963",
    "location": {
      "type": "Point",
      "coordinates": [
        -81.5583,
        25.895
      ]
    }
  },
  {
    "state": "florida",
    "name": "Marco Island, Caxambas Pass",
    "stationId": "8724967",
    "location": {
      "type": "Point",
      "coordinates": [
        -81.7283,
        25.9083
      ]
    }
  },
  {
    "state": "florida",
    "name": "Coon Key",
    "stationId": "8724964",
    "location": {
      "type": "Point",
      "coordinates": [
        -81.6367,
        25.8967
      ]
    }
  },
  {
    "state": "florida",
    "name": "Marco, Big Marco River",
    "stationId": "8724991",
    "location": {
      "type": "Point",
      "coordinates": [
        -81.7283,
        25.9717
      ]
    }
  },
  {
    "state": "florida",
    "name": "McIlvaine Bay",
    "stationId": "8724996",
    "location": {
      "type": "Point",
      "coordinates": [
        -81.7017,
        25.985
      ]
    }
  },
  {
    "state": "florida",
    "name": "Keewaydin island (inside)",
    "stationId": "8725019",
    "location": {
      "type": "Point",
      "coordinates": [
        -81.7683,
        26.025
      ]
    }
  },
  {
    "state": "florida",
    "name": "NAPLES (outer coast)",
    "stationId": "8725110",
    "location": {
      "type": "Point",
      "coordinates": [
        -81.8075,
        26.1317
      ]
    }
  },
  {
    "state": "florida",
    "name": "Punta Rassa, San Carlos Bay",
    "stationId": "8725391",
    "location": {
      "type": "Point",
      "coordinates": [
        -82.0133,
        26.4883
      ]
    }
  },
  {
    "state": "florida",
    "name": "Tarpon Bay, Sanibel Island",
    "stationId": "8725362",
    "location": {
      "type": "Point",
      "coordinates": [
        -82.0817,
        26.4433
      ]
    }
  },
  {
    "state": "florida",
    "name": "North Captiva Island",
    "stationId": "8725488",
    "location": {
      "type": "Point",
      "coordinates": [
        -82.2183,
        26.605
      ]
    }
  },
  {
    "state": "florida",
    "name": "Don Pedro Island State Park, Cutoff (south)",
    "stationId": "8725685",
    "location": {
      "type": "Point",
      "coordinates": [
        -82.3033,
        26.855
      ]
    }
  },
  {
    "state": "florida",
    "name": "Manasota, Lemon Bay",
    "stationId": "8725809",
    "location": {
      "type": "Point",
      "coordinates": [
        -82.41,
        27.0117
      ]
    }
  },
  {
    "state": "florida",
    "name": "Venice Municipal Airport",
    "stationId": "8725858",
    "location": {
      "type": "Point",
      "coordinates": [
        -82.4533,
        27.0717
      ]
    }
  },
  {
    "state": "florida",
    "name": "Egmont Key, Egmont Channel",
    "stationId": "8726347",
    "location": {
      "type": "Point",
      "coordinates": [
        -82.76,
        27.6017
      ]
    }
  },
  {
    "state": "florida",
    "name": "Mullet Key Channel (Skyway)",
    "stationId": "8726364",
    "location": {
      "type": "Point",
      "coordinates": [
        -82.7267,
        27.615
      ]
    }
  },
  {
    "state": "florida",
    "name": "Port Manatee",
    "stationId": "8726384",
    "location": {
      "type": "Point",
      "coordinates": [
        -82.5621,
        27.6387
      ]
    }
  },
  {
    "state": "florida",
    "name": "Little Manatee River, US 41 Bridge",
    "stationId": "8726436",
    "location": {
      "type": "Point",
      "coordinates": [
        -82.4483,
        27.705
      ]
    }
  },
  {
    "state": "florida",
    "name": "ST. PETERSBURG",
    "stationId": "8726520",
    "location": {
      "type": "Point",
      "coordinates": [
        -82.6269,
        27.7606
      ]
    }
  },
  {
    "state": "florida",
    "name": "NEWMAN BRANCH",
    "stationId": "8726539",
    "location": {
      "type": "Point",
      "coordinates": [
        -82.4067,
        27.7833
      ]
    }
  },
  {
    "state": "florida",
    "name": "Ballast Point",
    "stationId": "8726639",
    "location": {
      "type": "Point",
      "coordinates": [
        -82.48,
        27.89
      ]
    }
  },
  {
    "state": "florida",
    "name": "McKay Bay entrance",
    "stationId": "8726667",
    "location": {
      "type": "Point",
      "coordinates": [
        -82.425,
        27.9133
      ]
    }
  },
  {
    "state": "florida",
    "name": "Old Port Tampa",
    "stationId": "8726607",
    "location": {
      "type": "Point",
      "coordinates": [
        -82.5527,
        27.8578
      ]
    }
  },
  {
    "state": "florida",
    "name": "Safety Harbor, Old Tampa Bay",
    "stationId": "8726738",
    "location": {
      "type": "Point",
      "coordinates": [
        -82.685,
        27.9883
      ]
    }
  },
  {
    "state": "florida",
    "name": "Clearwater Beach",
    "stationId": "8726724",
    "location": {
      "type": "Point",
      "coordinates": [
        -82.8317,
        27.9783
      ]
    }
  },
  {
    "state": "florida",
    "name": "Anclote Key, southern end",
    "stationId": "8726917",
    "location": {
      "type": "Point",
      "coordinates": [
        -82.8433,
        28.165
      ]
    }
  },
  {
    "state": "florida",
    "name": "Bayport",
    "stationId": "8727151",
    "location": {
      "type": "Point",
      "coordinates": [
        -82.65,
        28.5333
      ]
    }
  },
  {
    "state": "florida",
    "name": "Johns Island, Chassahowitzka Bay",
    "stationId": "8727235",
    "location": {
      "type": "Point",
      "coordinates": [
        -82.6383,
        28.6917
      ]
    }
  },
  {
    "state": "florida",
    "name": "Chassahowitzka, Chassahowitzka River",
    "stationId": "8727246",
    "location": {
      "type": "Point",
      "coordinates": [
        -82.5767,
        28.715
      ]
    }
  },
  {
    "state": "florida",
    "name": "Mason Creek, Homosassa Bay",
    "stationId": "8727274",
    "location": {
      "type": "Point",
      "coordinates": [
        -82.6383,
        28.7617
      ]
    }
  },
  {
    "state": "florida",
    "name": "Tuckers Island, Homosassa River",
    "stationId": "8727277",
    "location": {
      "type": "Point",
      "coordinates": [
        -82.695,
        28.7717
      ]
    }
  },
  {
    "state": "florida",
    "name": "Halls River bridge, Homosassa River",
    "stationId": "8727293",
    "location": {
      "type": "Point",
      "coordinates": [
        -82.6033,
        28.8
      ]
    }
  },
  {
    "state": "florida",
    "name": "Ozello, St. Martins River",
    "stationId": "8727306",
    "location": {
      "type": "Point",
      "coordinates": [
        -82.6583,
        28.825
      ]
    }
  },
  {
    "state": "florida",
    "name": "Mangrove Pt., Crystal Bay",
    "stationId": "8727333",
    "location": {
      "type": "Point",
      "coordinates": [
        -82.7233,
        28.87
      ]
    }
  },
  {
    "state": "florida",
    "name": "Ozello north, Crystal Bay",
    "stationId": "8727328",
    "location": {
      "type": "Point",
      "coordinates": [
        -82.6667,
        28.8633
      ]
    }
  },
  {
    "state": "florida",
    "name": "Dixie Bay, Salt River, Crystal Bay",
    "stationId": "8727336",
    "location": {
      "type": "Point",
      "coordinates": [
        -82.635,
        28.8817
      ]
    }
  },
  {
    "state": "florida",
    "name": "Shell Island, north end",
    "stationId": "8727359",
    "location": {
      "type": "Point",
      "coordinates": [
        -82.6917,
        28.9233
      ]
    }
  },
  {
    "state": "florida",
    "name": "Twin Rivers Marina",
    "stationId": "8727348",
    "location": {
      "type": "Point",
      "coordinates": [
        -82.6383,
        28.905
      ]
    }
  },
  {
    "state": "florida",
    "name": "Kings Bay",
    "stationId": "8727343",
    "location": {
      "type": "Point",
      "coordinates": [
        -82.5983,
        28.8983
      ]
    }
  },
  {
    "state": "florida",
    "name": "CEDAR KEY",
    "stationId": "8727520",
    "location": {
      "type": "Point",
      "coordinates": [
        -83.0317,
        29.135
      ]
    }
  },
  {
    "state": "florida",
    "name": "HORSESHOE POINT",
    "stationId": "8727648",
    "location": {
      "type": "Point",
      "coordinates": [
        -83.2933,
        29.4367
      ]
    }
  },
  {
    "state": "florida",
    "name": "Spring Warrior Creek",
    "stationId": "8727843",
    "location": {
      "type": "Point",
      "coordinates": [
        -83.6717,
        29.92
      ]
    }
  },
  {
    "state": "florida",
    "name": "ST. MARKS RIVER ENTRANCE",
    "stationId": "8728130",
    "location": {
      "type": "Point",
      "coordinates": [
        -84.1783,
        30.0783
      ]
    }
  },
  {
    "state": "florida",
    "name": "Shell Point, Walker Creek",
    "stationId": "8728229",
    "location": {
      "type": "Point",
      "coordinates": [
        -84.29,
        30.06
      ]
    }
  },
  {
    "state": "florida",
    "name": "Turkey Point, St. James Island",
    "stationId": "8728360",
    "location": {
      "type": "Point",
      "coordinates": [
        -84.5117,
        29.915
      ]
    }
  },
  {
    "state": "florida",
    "name": "Dog Island, East End",
    "stationId": "8728408",
    "location": {
      "type": "Point",
      "coordinates": [
        -84.585,
        29.81
      ]
    }
  },
  {
    "state": "florida",
    "name": "St. George Island, Sikes Cut",
    "stationId": "8728669",
    "location": {
      "type": "Point",
      "coordinates": [
        -84.9583,
        29.6133
      ]
    }
  },
  {
    "state": "florida",
    "name": "WHITE BEACH, EAST BAY",
    "stationId": "8728694",
    "location": {
      "type": "Point",
      "coordinates": [
        -84.8983,
        29.785
      ]
    }
  },
  {
    "state": "florida",
    "name": "APALACHICOLA",
    "stationId": "8728690",
    "location": {
      "type": "Point",
      "coordinates": [
        -84.9817,
        29.7267
      ]
    }
  },
  {
    "state": "florida",
    "name": "White City, ICWW",
    "stationId": "8728853",
    "location": {
      "type": "Point",
      "coordinates": [
        -85.2214,
        29.8807
      ]
    }
  },
  {
    "state": "florida",
    "name": "Port Saint Joe, St. Joseph Bay",
    "stationId": "8728912",
    "location": {
      "type": "Point",
      "coordinates": [
        -85.3133,
        29.815
      ]
    }
  },
  {
    "state": "florida",
    "name": "Panama City",
    "stationId": "8729108",
    "location": {
      "type": "Point",
      "coordinates": [
        -85.6669,
        30.1523
      ]
    }
  },
  {
    "state": "florida",
    "name": "Navarre Beach",
    "stationId": "8729678",
    "location": {
      "type": "Point",
      "coordinates": [
        -86.865,
        30.3767
      ]
    }
  },
  {
    "state": "florida",
    "name": "PENSACOLA",
    "stationId": "8729840",
    "location": {
      "type": "Point",
      "coordinates": [
        -87.2111,
        30.4044
      ]
    }
  },
  {
    "state": "florida",
    "name": "Blue Angels Park",
    "stationId": "8729941",
    "location": {
      "type": "Point",
      "coordinates": [
        -87.4288,
        30.3869
      ]
    }
  },
  {
    "state": "florida",
    "name": "Millview, Perdido Bay",
    "stationId": "8729905",
    "location": {
      "type": "Point",
      "coordinates": [
        -87.3567,
        30.4183
      ]
    }
  },
  {
    "state": "florida",
    "name": "Alabama Point",
    "stationId": "8730667",
    "location": {
      "type": "Point",
      "coordinates": [
        -87.555,
        30.2786
      ]
    }
  }
]