[
  {
    "state": "maine",
    "name": "Pettegrove Point, Dochet Island",
    "stationId": "8410834",
    "location": {
      "type": "Point",
      "coordinates": [
        -67.1447,
        45.1284
      ]
    }
  },
  {
    "state": "maine",
    "name": "EASTPORT",
    "stationId": "8410140",
    "location": {
      "type": "Point",
      "coordinates": [
        -66.9829,
        44.9046
      ]
    }
  },
  {
    "state": "maine",
    "name": "Garnet Point, Pennamquan River",
    "stationId": "8410715",
    "location": {
      "type": "Point",
      "coordinates": [
        -67.13,
        44.9233
      ]
    }
  },
  {
    "state": "maine",
    "name": "Coffins Point",
    "stationId": "8410714",
    "location": {
      "type": "Point",
      "coordinates": [
        -67.1083,
        44.87
      ]
    }
  },
  {
    "state": "maine",
    "name": "Gravelly Point, Whiting Bay",
    "stationId": "8410864",
    "location": {
      "type": "Point",
      "coordinates": [
        -67.1517,
        44.8233
      ]
    }
  },
  {
    "state": "maine",
    "name": "Cutler, Little River",
    "stationId": "8411060",
    "location": {
      "type": "Point",
      "coordinates": [
        -67.21,
        44.6567
      ]
    }
  },
  {
    "state": "maine",
    "name": "Cutler, Naval Radio Station",
    "stationId": "8411250",
    "location": {
      "type": "Point",
      "coordinates": [
        -67.2967,
        44.6417
      ]
    }
  },
  {
    "state": "maine",
    "name": "Millbridge, Narraguagus River, Maine",
    "stationId": "8412581",
    "location": {
      "type": "Point",
      "coordinates": [
        -67.875,
        44.54
      ]
    }
  },
  {
    "state": "maine",
    "name": "BAR HARBOR",
    "stationId": "8413320",
    "location": {
      "type": "Point",
      "coordinates": [
        -68.205,
        44.3917
      ]
    }
  },
  {
    "state": "maine",
    "name": "Ellsworth, Union River",
    "stationId": "8413801",
    "location": {
      "type": "Point",
      "coordinates": [
        -68.4217,
        44.535
      ]
    }
  },
  {
    "state": "maine",
    "name": "Oceanville, Deer Isle",
    "stationId": "8414249",
    "location": {
      "type": "Point",
      "coordinates": [
        -68.6209,
        44.1923
      ]
    }
  },
  {
    "state": "maine",
    "name": "Pulpit Harbor, North Haven Island",
    "stationId": "8414888",
    "location": {
      "type": "Point",
      "coordinates": [
        -68.8867,
        44.1567
      ]
    }
  },
  {
    "state": "maine",
    "name": "Fort Point, Penobscot River",
    "stationId": "8414721",
    "location": {
      "type": "Point",
      "coordinates": [
        -68.8133,
        44.4717
      ]
    }
  },
  {
    "state": "maine",
    "name": "Bangor",
    "stationId": "8414612",
    "location": {
      "type": "Point",
      "coordinates": [
        -68.7667,
        44.785
      ]
    }
  },
  {
    "state": "maine",
    "name": "Rockland",
    "stationId": "8415490",
    "location": {
      "type": "Point",
      "coordinates": [
        -69.1017,
        44.105
      ]
    }
  },
  {
    "state": "maine",
    "name": "Thomaston",
    "stationId": "8415709",
    "location": {
      "type": "Point",
      "coordinates": [
        -69.1817,
        44.0717
      ]
    }
  },
  {
    "state": "maine",
    "name": "Walpole",
    "stationId": "8416731",
    "location": {
      "type": "Point",
      "coordinates": [
        -69.58,
        43.9333
      ]
    }
  },
  {
    "state": "maine",
    "name": "Fort Popham, Hunniwell Point",
    "stationId": "8417177",
    "location": {
      "type": "Point",
      "coordinates": [
        -69.785,
        43.755
      ]
    }
  },
  {
    "state": "maine",
    "name": "Bath",
    "stationId": "8417227",
    "location": {
      "type": "Point",
      "coordinates": [
        -69.815,
        43.925
      ]
    }
  },
  {
    "state": "maine",
    "name": "PORTLAND",
    "stationId": "8418150",
    "location": {
      "type": "Point",
      "coordinates": [
        -70.2467,
        43.6567
      ]
    }
  },
  {
    "state": "maine",
    "name": "Pine Point, Scarborough River",
    "stationId": "8418445",
    "location": {
      "type": "Point",
      "coordinates": [
        -70.3333,
        43.545
      ]
    }
  },
  {
    "state": "maine",
    "name": "Camp Ellis, Saco River Entrance",
    "stationId": "8418606",
    "location": {
      "type": "Point",
      "coordinates": [
        -70.3817,
        43.4617
      ]
    }
  },
  {
    "state": "maine",
    "name": "Biddeford, Saco River",
    "stationId": "8418828",
    "location": {
      "type": "Point",
      "coordinates": [
        -70.4467,
        43.4917
      ]
    }
  },
  {
    "state": "maine",
    "name": "Kennebunkport",
    "stationId": "8418911",
    "location": {
      "type": "Point",
      "coordinates": [
        -70.4767,
        43.3583
      ]
    }
  },
  {
    "state": "maine",
    "name": "Wells, Webhannet River",
    "stationId": "8419317",
    "location": {
      "type": "Point",
      "coordinates": [
        -70.5633,
        43.32
      ]
    }
  }
]
