[
  {
    "state": "new york",
    "name": "Rye Beach",
    "stationId": "8518091",
    "location": {
      "type": "Point",
      "coordinates": [
        -73.6717,
        40.9617
      ]
    }
  },
  {
    "state": "new york",
    "name": "Throgs Neck, Fort Schuyler",
    "stationId": "8518526",
    "location": {
      "type": "Point",
      "coordinates": [
        -73.795,
        40.805
      ]
    }
  },
  {
    "state": "new york",
    "name": "Worlds Fair Marina, Flushing Bay",
    "stationId": "8517251",
    "location": {
      "type": "Point",
      "coordinates": [
        -73.8504,
        40.761
      ]
    }
  },
  {
    "state": "new york",
    "name": "Port Morris (Stony Point)",
    "stationId": "8518639",
    "location": {
      "type": "Point",
      "coordinates": [
        -73.9067,
        40.8017
      ]
    }
  },
  {
    "state": "new york",
    "name": "Horns Hook, East 90th Street",
    "stationId": "8518668",
    "location": {
      "type": "Point",
      "coordinates": [
        -73.9417,
        40.7767
      ]
    }
  },
  {
    "state": "new york",
    "name": "Queensboro Bridge",
    "stationId": "8518687",
    "location": {
      "type": "Point",
      "coordinates": [
        -73.9583,
        40.7583
      ]
    }
  },
  {
    "state": "new york",
    "name": "Williamsburg Bridge",
    "stationId": "8518699",
    "location": {
      "type": "Point",
      "coordinates": [
        -73.9683,
        40.7117
      ]
    }
  },
  {
    "state": "new york",
    "name": "Brooklyn Bridge",
    "stationId": "8517847",
    "location": {
      "type": "Point",
      "coordinates": [
        -73.995,
        40.7033
      ]
    }
  },
  {
    "state": "new york",
    "name": "Harlem River, Randalls Island",
    "stationId": "8518643",
    "location": {
      "type": "Point",
      "coordinates": [
        -73.9283,
        40.8
      ]
    }
  },
  {
    "state": "new york",
    "name": "Willets Point",
    "stationId": "8516990",
    "location": {
      "type": "Point",
      "coordinates": [
        -73.7817,
        40.7933
      ]
    }
  },
  {
    "state": "new york",
    "name": "KINGS POINT",
    "stationId": "8516945",
    "location": {
      "type": "Point",
      "coordinates": [
        -73.7649,
        40.8103
      ]
    }
  },
  {
    "state": "new york",
    "name": "Port Washington, Manhasset Bay",
    "stationId": "8516761",
    "location": {
      "type": "Point",
      "coordinates": [
        -73.7033,
        40.8317
      ]
    }
  },
  {
    "state": "new york",
    "name": "Harry Tappen Marina, Hempstead Harbor",
    "stationId": "8516607",
    "location": {
      "type": "Point",
      "coordinates": [
        -73.6524,
        40.8346
      ]
    }
  },
  {
    "state": "new york",
    "name": "Glen Cove, Hempstead Harbor",
    "stationId": "8516614",
    "location": {
      "type": "Point",
      "coordinates": [
        -73.655,
        40.8633
      ]
    }
  },
  {
    "state": "new york",
    "name": "Bayville Bridge",
    "stationId": "8516299",
    "location": {
      "type": "Point",
      "coordinates": [
        -73.55,
        40.9033
      ]
    }
  },
  {
    "state": "new york",
    "name": "Cold Spring Harbor",
    "stationId": "8516061",
    "location": {
      "type": "Point",
      "coordinates": [
        -73.47,
        40.8733
      ]
    }
  },
  {
    "state": "new york",
    "name": "Eatons Neck Point",
    "stationId": "8515786",
    "location": {
      "type": "Point",
      "coordinates": [
        -73.4,
        40.9533
      ]
    }
  },
  {
    "state": "new york",
    "name": "Lloyd Harbor, Huntington Bay",
    "stationId": "8515921",
    "location": {
      "type": "Point",
      "coordinates": [
        -73.4317,
        40.91
      ]
    }
  },
  {
    "state": "new york",
    "name": "Northport, Northport Bay",
    "stationId": "8515586",
    "location": {
      "type": "Point",
      "coordinates": [
        -73.3533,
        40.9
      ]
    }
  },
  {
    "state": "new york",
    "name": "Cedar Beach",
    "stationId": "8514422",
    "location": {
      "type": "Point",
      "coordinates": [
        -73.0433,
        40.965
      ]
    }
  },
  {
    "state": "new york",
    "name": "Northville",
    "stationId": "8512987",
    "location": {
      "type": "Point",
      "coordinates": [
        -72.645,
        40.9817
      ]
    }
  },
  {
    "state": "new york",
    "name": "Mattituck Inlet",
    "stationId": "8512668",
    "location": {
      "type": "Point",
      "coordinates": [
        -72.5617,
        41.015
      ]
    }
  },
  {
    "state": "new york",
    "name": "Plum Gut Harbor, Plum Island",
    "stationId": "8511236",
    "location": {
      "type": "Point",
      "coordinates": [
        -72.205,
        41.1717
      ]
    }
  },
  {
    "state": "new york",
    "name": "Orient",
    "stationId": "8511671",
    "location": {
      "type": "Point",
      "coordinates": [
        -72.3067,
        41.1367
      ]
    }
  },
  {
    "state": "new york",
    "name": "Greenport",
    "stationId": "8511907",
    "location": {
      "type": "Point",
      "coordinates": [
        -72.3612,
        41.101
      ]
    }
  },
  {
    "state": "new york",
    "name": "Sag Harbor",
    "stationId": "8511629",
    "location": {
      "type": "Point",
      "coordinates": [
        -72.2967,
        41.0033
      ]
    }
  },
  {
    "state": "new york",
    "name": "South Jamesport",
    "stationId": "8512735",
    "location": {
      "type": "Point",
      "coordinates": [
        -72.5817,
        40.935
      ]
    }
  },
  {
    "state": "new york",
    "name": "Lake Montauk",
    "stationId": "8510448",
    "location": {
      "type": "Point",
      "coordinates": [
        -71.935,
        41.0733
      ]
    }
  },
  {
    "state": "new york",
    "name": "MONTAUK, FORT POND BAY",
    "stationId": "8510560",
    "location": {
      "type": "Point",
      "coordinates": [
        -71.96,
        41.0483
      ]
    }
  },
  {
    "state": "new york",
    "name": "Ponquoque Point",
    "stationId": "8512451",
    "location": {
      "type": "Point",
      "coordinates": [
        -72.5033,
        40.85
      ]
    }
  },
  {
    "state": "new york",
    "name": "Shinnecock Yacht Club, Penniman Creek",
    "stationId": "8512769",
    "location": {
      "type": "Point",
      "coordinates": [
        -72.5866,
        40.8186
      ]
    }
  },
  {
    "state": "new york",
    "name": "Shinnecock Inlet (ocean)",
    "stationId": "8512354",
    "location": {
      "type": "Point",
      "coordinates": [
        -72.48,
        40.8367
      ]
    }
  },
  {
    "state": "new york",
    "name": "Moriches Inlet",
    "stationId": "8513398",
    "location": {
      "type": "Point",
      "coordinates": [
        -72.756,
        40.7644
      ]
    }
  },
  {
    "state": "new york",
    "name": "Moriches Coast Guard Station",
    "stationId": "8513388",
    "location": {
      "type": "Point",
      "coordinates": [
        -72.75,
        40.7867
      ]
    }
  },
  {
    "state": "new york",
    "name": "Smith Point Bridge, Narrow Bay",
    "stationId": "8513825",
    "location": {
      "type": "Point",
      "coordinates": [
        -72.8683,
        40.7383
      ]
    }
  },
  {
    "state": "new york",
    "name": "Fire Island Coast Guard Station",
    "stationId": "8515186",
    "location": {
      "type": "Point",
      "coordinates": [
        -73.26,
        40.6267
      ]
    }
  },
  {
    "state": "new york",
    "name": "Seaview Ferry Dock",
    "stationId": "8514779",
    "location": {
      "type": "Point",
      "coordinates": [
        -73.1506,
        40.6493
      ]
    }
  },
  {
    "state": "new york",
    "name": "Patchogue",
    "stationId": "8514322",
    "location": {
      "type": "Point",
      "coordinates": [
        -73,
        40.75
      ]
    }
  },
  {
    "state": "new york",
    "name": "Point Lookout (marina), Jones Inlet",
    "stationId": "8516402",
    "location": {
      "type": "Point",
      "coordinates": [
        -73.584,
        40.5939
      ]
    }
  },
  {
    "state": "new york",
    "name": "Green Island",
    "stationId": "8516155",
    "location": {
      "type": "Point",
      "coordinates": [
        -73.5017,
        40.6233
      ]
    }
  },
  {
    "state": "new york",
    "name": "Baldwin, Parsonage Cove, Hempstead Bay",
    "stationId": "8516501",
    "location": {
      "type": "Point",
      "coordinates": [
        -73.6167,
        40.6333
      ]
    }
  },
  {
    "state": "new york",
    "name": "Long Beach, Bridgewater Yacht Club, New York",
    "stationId": "8516663",
    "location": {
      "type": "Point",
      "coordinates": [
        -73.6551,
        40.5963
      ]
    }
  },
  {
    "state": "new york",
    "name": "Bay Park, Hewlett Bay",
    "stationId": "8516661",
    "location": {
      "type": "Point",
      "coordinates": [
        -73.67,
        40.63
      ]
    }
  },
  {
    "state": "new york",
    "name": "East Rockaway Inlet, Atlantic Beach",
    "stationId": "8516881",
    "location": {
      "type": "Point",
      "coordinates": [
        -73.7433,
        40.595
      ]
    }
  },
  {
    "state": "new york",
    "name": "Norton Point, Head of Bay",
    "stationId": "8516891",
    "location": {
      "type": "Point",
      "coordinates": [
        -73.7467,
        40.635
      ]
    }
  },
  {
    "state": "new york",
    "name": "USCG Station NY",
    "stationId": "8519050",
    "location": {
      "type": "Point",
      "coordinates": [
        -74.0599,
        40.612
      ]
    }
  },
  {
    "state": "new york",
    "name": "NEW YORK (The Battery)",
    "stationId": "8518750",
    "location": {
      "type": "Point",
      "coordinates": [
        -74.0142,
        40.7006
      ]
    }
  },
  {
    "state": "new york",
    "name": "Dyckman Street, Ferry Slip",
    "stationId": "8518902",
    "location": {
      "type": "Point",
      "coordinates": [
        -73.9333,
        40.8683
      ]
    }
  },
  {
    "state": "new york",
    "name": "Haverstraw",
    "stationId": "8518924",
    "location": {
      "type": "Point",
      "coordinates": [
        -73.9633,
        41.2183
      ]
    }
  },
  {
    "state": "new york",
    "name": "Beacon, Flushkill",
    "stationId": "8518934",
    "location": {
      "type": "Point",
      "coordinates": [
        -73.9833,
        41.5
      ]
    }
  },
  {
    "state": "new york",
    "name": "Hyde Park",
    "stationId": "8518951",
    "location": {
      "type": "Point",
      "coordinates": [
        -73.95,
        41.7833
      ]
    }
  },
  {
    "state": "new york",
    "name": "ALBANY",
    "stationId": "8518995",
    "location": {
      "type": "Point",
      "coordinates": [
        -73.7467,
        42.65
      ]
    }
  },
  {
    "state": "new york",
    "name": "BAYONNE BRIDGE, STATEN ISLAND",
    "stationId": "8519483",
    "location": {
      "type": "Point",
      "coordinates": [
        -74.1417,
        40.6367
      ]
    }
  },
  {
    "state": "new york",
    "name": "Great Kills Harbor",
    "stationId": "8519436",
    "location": {
      "type": "Point",
      "coordinates": [
        -74.14,
        40.5433
      ]
    }
  }
]