[{"name":"Westport","spotId":310,"location":{"type":"Point","coordinates":[-124.1040613,46.8900903]}},{"name":"Cape-Flattery","spotId":710,"location":{"type":"Point","coordinates":[-124.7144109,48.38311789999999]}},{"name":"Ocean-Shores","spotId":3813,"location":{"type":"Point","coordinates":[-124.1562852,46.9736986]}},{"name":"La-Push","spotId":308,"location":{"type":"Point","coordinates":[-124.6352255,47.90813350000001]}},{"name":"Long-Beach","spotId":311,"location":{"type":"Point","coordinates":[-118.1937395,33.7700504]}}]