[
  {
    "state": "georgia",
    "name": "SAVANNAH RIVER ENTRANCE, FORT PULASKI",
    "stationId": "8670870",
    "location": { "type": "Point", "coordinates": ["-80.9017", "+32.0367"] }
  },
  {
    "state": "georgia",
    "name": "Port Wentworth",
    "stationId": "8670424",
    "location": { "type": "Point", "coordinates": ["-81.1417", "+32.1433"] }
  },
  {
    "state": "georgia",
    "name": "Bear River, (Range 'A' Light)",
    "stationId": "8672667",
    "location": { "type": "Point", "coordinates": ["-81.1817", "+31.7933"] }
  },
  {
    "state": "georgia",
    "name": "Bear River Entrance",
    "stationId": "8673171",
    "location": { "type": "Point", "coordinates": ["-81.1417", "+31.7230"] }
  },
  {
    "state": "georgia",
    "name": "Sunbury, Medway River",
    "stationId": "8672875",
    "location": { "type": "Point", "coordinates": ["-81.2783", "+31.7667"] }
  },
  {
    "state": "georgia",
    "name": "South Newport River (Daymark 135)",
    "stationId": "8674301",
    "location": { "type": "Point", "coordinates": ["-81.1900", "+31.5750"] }
  },
  {
    "state": "georgia",
    "name": "Daymark #156, Head of Mud River",
    "stationId": "8674975",
    "location": { "type": "Point", "coordinates": ["-81.3200", "+31.4867"] }
  },
  {
    "state": "georgia",
    "name": "Rockdedundy River (Daymark 185)",
    "stationId": "8675761",
    "location": { "type": "Point", "coordinates": ["-81.3339", "+31.3739"] }
  },
  {
    "state": "georgia",
    "name": "St. Simons Light",
    "stationId": "8677344",
    "location": { "type": "Point", "coordinates": ["-81.3967", "+31.1317"] }
  },
  {
    "state": "georgia",
    "name": "Howe Street Pier, Brunswick",
    "stationId": "8677406",
    "location": { "type": "Point", "coordinates": ["-81.4968", "+31.1446"] }
  },
  {
    "state": "georgia",
    "name": "Raccoon Key Spit",
    "stationId": "8678124",
    "location": { "type": "Point", "coordinates": ["-81.4560", "+31.0148"] }
  },
  {
    "state": "georgia",
    "name": "Bailey Cut, 0.8 mile west of",
    "stationId": "8678322",
    "location": { "type": "Point", "coordinates": ["-81.5917", "+30.9850"] }
  },
  {
    "state": "georgia",
    "name": "Kings Bay, Navy Base",
    "stationId": "8679511",
    "location": { "type": "Point", "coordinates": ["-81.5150", "+30.7967"] }
  },
  {
    "state": "georgia",
    "name": "Seacamp Dock, Cumberland Island",
    "stationId": "8679758",
    "location": { "type": "Point", "coordinates": ["-81.4717", "+30.7633"] }
  },
  {
    "state": "georgia",
    "name": "St. Marys",
    "stationId": "8679964",
    "location": { "type": "Point", "coordinates": ["-81.5483", "+30.7200"] }
  },
  {
    "state": "georgia",
    "name": "Crandall",
    "stationId": "8720004",
    "location": { "type": "Point", "coordinates": ["-81.6217", "+30.7217"] }
  },
  {
    "state": "georgia",
    "name": "Chester, Bells River",
    "stationId": "8720023",
    "location": { "type": "Point", "coordinates": ["-81.5333", "+30.6833"] }
  },
  {
    "state": "georgia",
    "name": "Lofton, Lanceford Creek",
    "stationId": "8720051",
    "location": { "type": "Point", "coordinates": ["-81.5233", "+30.6433"] }
  },
  {
    "state": "georgia",
    "name": "FERNANDINA BEACH, Amelia River",
    "stationId": "8720030",
    "location": { "type": "Point", "coordinates": ["-81.4658", "+30.6714"] }
  }
]
