[
  {
    "state": "north carolina",
    "name": "Southport",
    "stationId": "8659084",
    "location": { "type": "Point", "coordinates": ["-78.0183", "33.9150"] }
  },
  {
    "state": "north carolina",
    "name": "Zekes Island",
    "stationId": "8658741",
    "location": { "type": "Point", "coordinates": ["-77.9517", "33.9500"] }
  },
  {
    "state": "north carolina",
    "name": "Sunny Point Army Base, Wharf no.3",
    "stationId": "8658579",
    "location": { "type": "Point", "coordinates": ["-77.9467", "34.0233"] }
  },
  {
    "state": "north carolina",
    "name": "WILMINGTON",
    "stationId": "8658120",
    "location": { "type": "Point", "coordinates": ["-77.9536", "34.2275"] }
  },
  {
    "state": "north carolina",
    "name": "DUCK PIER",
    "stationId": "8651370",
    "location": { "type": "Point", "coordinates": ["-75.7467", "36.1833"] }
  },
  {
    "state": "north carolina",
    "name": "OREGON INLET MARINA",
    "stationId": "8652587",
    "location": { "type": "Point", "coordinates": ["-75.5481", "35.7950"] }
  },
  {
    "state": "north carolina",
    "name": "Oregon Inlet (USCG Station)",
    "stationId": "8652678",
    "location": { "type": "Point", "coordinates": ["-75.5267", "35.7683"] }
  },
  {
    "state": "north carolina",
    "name": "Roanoke Marshes Light, Croatan Sound",
    "stationId": "8652547",
    "location": { "type": "Point", "coordinates": ["-75.7000", "35.8117"] }
  },
  {
    "state": "north carolina",
    "name": "Oyster Creek, Croatan Sound",
    "stationId": "8652437",
    "location": { "type": "Point", "coordinates": ["-75.6550", "35.8450"] }
  },
  {
    "state": "north carolina",
    "name": "Manns Harbor, Croatan Sound",
    "stationId": "8652247",
    "location": { "type": "Point", "coordinates": ["-75.7700", "35.9033"] }
  },
  {
    "state": "north carolina",
    "name": "CAPE HATTERAS FISHING PIER",
    "stationId": "8654400",
    "location": { "type": "Point", "coordinates": ["-75.6350", "35.2233"] }
  },
  {
    "state": "north carolina",
    "name": "Hatteras (ocean)",
    "stationId": "8654467",
    "location": { "type": "Point", "coordinates": ["-75.7042", "35.2086"] }
  },
  {
    "state": "north carolina",
    "name": "Peter's Ditch",
    "stationId": "8653951",
    "location": { "type": "Point", "coordinates": ["-75.5120", "35.3501"] }
  },
  {
    "state": "north carolina",
    "name": "Ocracoke, Ocracoke Island",
    "stationId": "8654792",
    "location": { "type": "Point", "coordinates": ["-75.9883", "35.1150"] }
  },
  {
    "state": "north carolina",
    "name": "Cape Lookout Bight",
    "stationId": "8656841",
    "location": { "type": "Point", "coordinates": ["-76.5383", "34.6133"] }
  },
  {
    "state": "north carolina",
    "name": "Davis, Core Sound",
    "stationId": "8656201",
    "location": { "type": "Point", "coordinates": ["-76.4555", "34.7968"] }
  },
  {
    "state": "north carolina",
    "name": "Beaufort, Duke Marine Lab",
    "stationId": "8656483",
    "location": { "type": "Point", "coordinates": ["-76.6700", "34.7200"] }
  },
  {
    "state": "north carolina",
    "name": "Atlantic Beach",
    "stationId": "8656590",
    "location": { "type": "Point", "coordinates": ["-76.7117", "34.6933"] }
  },
  {
    "state": "north carolina",
    "name": "SpoonersCreek",
    "stationId": "8656467",
    "location": { "type": "Point", "coordinates": ["-76.8033", "34.7250"] }
  },
  {
    "state": "north carolina",
    "name": "Wrightsville Beach",
    "stationId": "8658163",
    "location": { "type": "Point", "coordinates": ["-77.7867", "34.2133"] }
  },
  {
    "state": "north carolina",
    "name": "Oak Island, Yaupon Beach",
    "stationId": "8659182",
    "location": { "type": "Point", "coordinates": ["-78.0817", "33.9017"] }
  },
  {
    "state": "north carolina",
    "name": "Sunset Beach Pier",
    "stationId": "8659897",
    "location": { "type": "Point", "coordinates": ["-78.5067", "33.8650"] }
  }
]
