[
  {
    "state": "pennsylvania",
    "name": "Marcus Hook, Pa.",
    "stationId": "8540433",
    "location": { "type": "Point", "coordinates": ["-75.4094", "39.8117"] }
  },
  {
    "state": "pennsylvania",
    "name": "Paulsboro, Mantua Creek, N.J.",
    "stationId": "8538512",
    "location": { "type": "Point", "coordinates": ["-75.2383", "39.8350"] }
  },
  {
    "state": "pennsylvania",
    "name": "Philadelphia, Municipal Pier 11, Pa.",
    "stationId": "8545530",
    "location": { "type": "Point", "coordinates": ["-75.1383", "39.9533"] }
  },
  {
    "state": "pennsylvania",
    "name": "PHILADELPHIA, US Coast Guard Station, Pa.",
    "stationId": "8545240",
    "location": { "type": "Point", "coordinates": ["-75.1417", "39.9333"] }
  },
  {
    "state": "pennsylvania",
    "name": "Bridesburg, Philadelphia, Pa.",
    "stationId": "8546252",
    "location": { "type": "Point", "coordinates": ["-75.0750", "39.9833"] }
  },
  {
    "state": "pennsylvania",
    "name": "Burlington, N.J.",
    "stationId": "8539094",
    "location": { "type": "Point", "coordinates": ["-74.8733", "40.0800"] }
  },
  {
    "state": "pennsylvania",
    "name": "Fieldsboro, N.J.",
    "stationId": "8539487",
    "location": { "type": "Point", "coordinates": ["-74.7367", "40.1367"] }
  },
  {
    "state": "pennsylvania",
    "name": "Newbold, Pa.",
    "stationId": "8548989",
    "location": { "type": "Point", "coordinates": ["-74.7519", "40.1373"] }
  },
  {
    "state": "pennsylvania",
    "name": "Trenton, N.J.",
    "stationId": "8539993",
    "location": { "type": "Point", "coordinates": ["-74.7550", "40.1883"] }
  }
]
