[
  {
    "state": "rhode island",
    "name": "Sakonnet",
    "stationId": "8450768",
    "location": {
      "type": "Point",
      "coordinates": [
        -71.1933,
        41.465
      ]
    }
  },
  {
    "state": "rhode island",
    "name": "NEWPORT",
    "stationId": "8452660",
    "location": {
      "type": "Point",
      "coordinates": [
        -71.3267,
        41.505
      ]
    }
  },
  {
    "state": "rhode island",
    "name": "West Jamestown, Dutch Island Harbor",
    "stationId": "8453742",
    "location": {
      "type": "Point",
      "coordinates": [
        -71.3867,
        41.4967
      ]
    }
  },
  {
    "state": "rhode island",
    "name": "Bristol Ferry",
    "stationId": "8451552",
    "location": {
      "type": "Point",
      "coordinates": [
        -71.255,
        41.6367
      ]
    }
  },
  {
    "state": "rhode island",
    "name": "Bristol Highlands",
    "stationId": "8452154",
    "location": {
      "type": "Point",
      "coordinates": [
        -71.2933,
        41.6967
      ]
    }
  },
  {
    "state": "rhode island",
    "name": "KICKAMUIT RIVER",
    "stationId": "8455137",
    "location": {
      "type": "Point",
      "coordinates": [
        -71.2417,
        41.7078
      ]
    }
  },
  {
    "state": "rhode island",
    "name": "Fall River, Massachusetts",
    "stationId": "8447386",
    "location": {
      "type": "Point",
      "coordinates": [
        -71.1641,
        41.7043
      ]
    }
  },
  {
    "state": "rhode island",
    "name": "Conimicut Light",
    "stationId": "8452944",
    "location": {
      "type": "Point",
      "coordinates": [
        -71.3433,
        41.7167
      ]
    }
  },
  {
    "state": "rhode island",
    "name": "Providence, State Pier no.1",
    "stationId": "8454000",
    "location": {
      "type": "Point",
      "coordinates": [
        -71.4012,
        41.8071
      ]
    }
  },
  {
    "state": "rhode island",
    "name": "Quonset Point",
    "stationId": "8454049",
    "location": {
      "type": "Point",
      "coordinates": [
        -71.411,
        41.5868
      ]
    }
  },
  {
    "state": "rhode island",
    "name": "East Greenwich",
    "stationId": "8454578",
    "location": {
      "type": "Point",
      "coordinates": [
        -71.445,
        41.665
      ]
    }
  },
  {
    "state": "rhode island",
    "name": "Wickford",
    "stationId": "8454538",
    "location": {
      "type": "Point",
      "coordinates": [
        -71.445,
        41.5717
      ]
    }
  },
  {
    "state": "rhode island",
    "name": "Point Judith, Harbor of Refuge",
    "stationId": "8455083",
    "location": {
      "type": "Point",
      "coordinates": [
        -71.49,
        41.3633
      ]
    }
  },
  {
    "state": "rhode island",
    "name": "Block Island (Old Harbor)",
    "stationId": "8459338",
    "location": {
      "type": "Point",
      "coordinates": [
        -71.5567,
        41.1733
      ]
    }
  },
  {
    "state": "rhode island",
    "name": "Southwest Point, Block Island",
    "stationId": "8459681",
    "location": {
      "type": "Point",
      "coordinates": [
        -71.61,
        41.1633
      ]
    }
  },
  {
    "state": "rhode island",
    "name": "Weekapaug Point, Block Island Sound",
    "stationId": "8458022",
    "location": {
      "type": "Point",
      "coordinates": [
        -71.7617,
        41.3283
      ]
    }
  }
]