[{"name":"Gold-Beach","spotId":321,"location":{"type":"Point","coordinates":[-124.421774,42.4073334]}},{"name":"Coos-Bay","spotId":320,"location":{"type":"Point","coordinates":[-124.2178903,43.3665007]}},{"name":"Newport","spotId":318,"location":{"type":"Point","coordinates":[-71.3128285,41.4901024]}},{"name":"Cape-Lookout","spotId":315,"location":{"type":"Point","coordinates":[-76.53667,34.60528000000001]}},{"name":"Brookings","spotId":322,"location":{"type":"Point","coordinates":[-124.2839819,42.0526114]}},{"name":"Cape-Kiwanda","spotId":560,"location":{"type":"Point","coordinates":[-123.9753912,45.219065]}},{"name":"Otter-Rock","spotId":317,"location":{"type":"Point","coordinates":[-124.0615459,44.747208]}},{"name":"Florence","spotId":696,"location":{"type":"Point","coordinates":[11.2558136,43.7695604]}},{"name":"Lincoln-City","spotId":316,"location":{"type":"Point","coordinates":[-124.0178914,44.95816440000001]}},{"name":"Cannon-Beach","spotId":313,"location":{"type":"Point","coordinates":[-123.9615274,45.8917738]}},{"name":"Winchester-Bay","spotId":319,"location":{"type":"Point","coordinates":[-124.1748369,43.6770608]}},{"name":"Smugglers-Cove","spotId":314,"location":{"type":"Point","coordinates":[-122.4233248,37.7794243]}}]